<?xml version="1.0"?>
<markers>
  <marker name="MARIA CIFUENTES" tel2="321 689-6654" address="Cra. 9 #4-30, Guacar&#xED;, Valle del Cauca, Colombia" lat="3.763809" lng="-76.3349"/>
  <marker name="MARIA CIFUENTES" tel2="321 689-6654" address="Cra. 9 #4-30, Guacar&#xED;, Valle del Cauca, Colombia" lat="3.763809" lng="-76.3349"/>
  <marker name="VIRGINIA RESTREPO" tel2="318 446-2393" address="Cra. 7 #1-64, El Cerrito, Valle del Cauca, Colombia" lat="3.680957" lng="-76.308403"/>
  <marker name="VIRGINIA RESTREPO" tel2="318 446-2393" address="Cra. 7 #1-64, El Cerrito, Valle del Cauca, Colombia" lat="3.680957" lng="-76.308403"/>
  <marker name="PEDRO MARTINEZ" tel2="315 544-7035" address="Cra. 14 #10-44, El Cerrito, Valle del Cauca, Colombia" lat="3.687498" lng="-76.314972"/>
  <marker name="PEDRO MARTINEZ" tel2="315 544-7035" address="Cra. 14 #10-44, El Cerrito, Valle del Cauca, Colombia" lat="3.687498" lng="-76.314972"/>
  <marker name="JAHIANA JARAMILLO" tel2="315 364-4260" address="Cl. 11 #7-35, Guacar&#xED;, Valle del Cauca, Colombia" lat="3.76865" lng="-76.332214"/>
  <marker name="JAHIANA JARAMILLO" tel2="315 364-4260" address="Cl. 11 #7-35, Guacar&#xED;, Valle del Cauca, Colombia" lat="3.76865" lng="-76.332214"/>
  <marker name="AURA OSPINA" tel2="314 779-4949" address="Cl. 7 #11-36, El Cerrito, Valle del Cauca, Colombia" lat="3.684363" lng="-76.312302"/>
  <marker name="AURA OSPINA" tel2="314 779-4949" address="Cl. 7 #11-36, El Cerrito, Valle del Cauca, Colombia" lat="3.684363" lng="-76.312302"/>
</markers>
