<?xml version="1.0"?>
<markers>
  <marker name="JAIR JARAMILLO" tel2="320 763-7622" address="Cra. 8 #6-4, Guacar&#xED;, Valle del Cauca, Colombia" lat="3.765184" lng="-76.333694"/>
  <marker name="JAIR JARAMILLO" tel2="320 763-7622" address="Cra. 8 #6-4, Guacar&#xED;, Valle del Cauca, Colombia" lat="3.765184" lng="-76.333694"/>
  <marker name="SANDRA BRAND" tel2="315 776-7347" address="Guabitas, Guacar&#xED;, Valle del Cauca, Colombia" lat="3.76505" lng="-76.303329"/>
  <marker name="SANDRA BRAND" tel2="315 776-7347" address="Guabitas, Guacar&#xED;, Valle del Cauca, Colombia" lat="3.76505" lng="-76.303329"/>
  <marker name="JORGE SEGURA" tel2="318 623-4561" address="Cl. 7 #4-10, El Cerrito, Valle del Cauca, Colombia" lat="3.684132" lng="-76.305344"/>
  <marker name="JORGE SEGURA" tel2="318 623-4561" address="Cl. 7 #4-10, El Cerrito, Valle del Cauca, Colombia" lat="3.684132" lng="-76.305344"/>
  <marker name="JORGE SEGURA" tel2="318 623-4561" address="Cl. 7 #4-10, El Cerrito, Valle del Cauca, Colombia" lat="3.684132" lng="-76.305344"/>
  <marker name="JORGE SEGURA" tel2="318 623-4561" address="Cl. 7 #4-10, El Cerrito, Valle del Cauca, Colombia" lat="3.684132" lng="-76.305344"/>
  <marker name="DIANA CANIZALEZ" tel2="322 952-1661" address="1a, Cl. 3a #4-4, El Cerrito, Valle del Cauca, Colombia" lat="3.681192" lng="-76.306007"/>
  <marker name="DIANA CANIZALEZ" tel2="322 952-1661" address="1a, Cl. 3a #4-4, El Cerrito, Valle del Cauca, Colombia" lat="3.681192" lng="-76.306007"/>
  <marker name="DIANA CANIZALEZ" tel2="322 952-1661" address="1a, Cl. 3a #4-4, El Cerrito, Valle del Cauca, Colombia" lat="3.681192" lng="-76.306007"/>
  <marker name="DIANA CANIZALEZ" tel2="322 952-1661" address="1a, Cl. 3a #4-4, El Cerrito, Valle del Cauca, Colombia" lat="3.681192" lng="-76.306007"/>
  <marker name="WILLIAN RODRIGUEZ" tel2="320 505-8948" address="Cra. 35 #63-158, Palmira, Valle del Cauca, Colombia" lat="3.560917" lng="-76.301338"/>
  <marker name="WILLIAN RODRIGUEZ" tel2="320 505-8948" address="Cra. 35 #63-158, Palmira, Valle del Cauca, Colombia" lat="3.560917" lng="-76.301338"/>
  <marker name="WILLIAN RODRIGUEZ" tel2="320 505-8948" address="Cra. 35 #63-158, Palmira, Valle del Cauca, Colombia" lat="3.560917" lng="-76.301338"/>
  <marker name="WILLIAN RODRIGUEZ" tel2="320 505-8948" address="Cra. 35 #63-158, Palmira, Valle del Cauca, Colombia" lat="3.560917" lng="-76.301338"/>
  <marker name="WILLIAN RODRIGUEZ" tel2="320 505-8948" address="Cra. 35 #63-158, Palmira, Valle del Cauca, Colombia" lat="3.560917" lng="-76.301338"/>
  <marker name="WILLIAN RODRIGUEZ" tel2="320 505-8948" address="Cra. 35 #63-158, Palmira, Valle del Cauca, Colombia" lat="3.560917" lng="-76.301338"/>
  <marker name="MARCIANA VARGAS" tel2="314 508-0335" address="Cra. 15, El Cerrito, Valle del Cauca, Colombia" lat="3.685728" lng="-76.315834"/>
  <marker name="MARCIANA VARGAS" tel2="314 508-0335" address="Cra. 15, El Cerrito, Valle del Cauca, Colombia" lat="3.685728" lng="-76.315834"/>
  <marker name="CLAUDIA URREGO" tel2="316 426-7069" address="Cl. 8 #18-44, El Cerrito, Valle del Cauca, Colombia" lat="3.685258" lng="-76.318993"/>
  <marker name="CLAUDIA URREGO" tel2="316 426-7069" address="Cl. 8 #18-44, El Cerrito, Valle del Cauca, Colombia" lat="3.685258" lng="-76.318993"/>
  <marker name="CLAUDIA URREGO" tel2="316 426-7069" address="Cl. 8 #18-44, El Cerrito, Valle del Cauca, Colombia" lat="3.685258" lng="-76.318993"/>
  <marker name="CLAUDIA URREGO" tel2="316 426-7069" address="Cl. 8 #18-44, El Cerrito, Valle del Cauca, Colombia" lat="3.685258" lng="-76.318993"/>
  <marker name="CLAUDIA URREGO" tel2="316 426-7069" address="Cl. 8 #18-44, El Cerrito, Valle del Cauca, Colombia" lat="3.685258" lng="-76.318993"/>
  <marker name="CLAUDIA URREGO" tel2="316 426-7069" address="Cl. 8 #18-44, El Cerrito, Valle del Cauca, Colombia" lat="3.685258" lng="-76.318993"/>
  <marker name="CLAUDIA URREGO" tel2="316 426-7069" address="Cl. 8 #18-44, El Cerrito, Valle del Cauca, Colombia" lat="3.685258" lng="-76.318993"/>
  <marker name="CLAUDIA URREGO" tel2="316 426-7069" address="Cl. 8 #18-44, El Cerrito, Valle del Cauca, Colombia" lat="3.685258" lng="-76.318993"/>
  <marker name="CLAUDIA URREGO" tel2="316 426-7069" address="Cl. 8 #18-44, El Cerrito, Valle del Cauca, Colombia" lat="3.685258" lng="-76.318993"/>
  <marker name="CLAUDIA URREGO" tel2="316 426-7069" address="Cl. 8 #18-44, El Cerrito, Valle del Cauca, Colombia" lat="3.685258" lng="-76.318993"/>
  <marker name="CLAUDIA URREGO" tel2="316 426-7069" address="Cl. 8 #18-44, El Cerrito, Valle del Cauca, Colombia" lat="3.685258" lng="-76.318993"/>
  <marker name="CLAUDIA URREGO" tel2="316 426-7069" address="Cl. 8 #18-44, El Cerrito, Valle del Cauca, Colombia" lat="3.685258" lng="-76.318993"/>
  <marker name="CLAUDIA URREGO" tel2="316 426-7069" address="Cl. 8 #18-44, El Cerrito, Valle del Cauca, Colombia" lat="3.685258" lng="-76.318993"/>
  <marker name="CLAUDIA URREGO" tel2="316 426-7069" address="Cl. 8 #18-44, El Cerrito, Valle del Cauca, Colombia" lat="3.685258" lng="-76.318993"/>
  <marker name="LUZ CUARAN" tel2="312 265-0936" address="Cl. 6 #4-70, El Cerrito, Valle del Cauca, Colombia" lat="3.683542" lng="-76.305946"/>
  <marker name="LUZ CUARAN" tel2="312 265-0936" address="Cl. 6 #4-70, El Cerrito, Valle del Cauca, Colombia" lat="3.683542" lng="-76.305946"/>
  <marker name="ARMEL RAMIREZ" tel2="316 879-5955" address="Guabitas, Guacar&#xED;, Valle del Cauca, Colombia" lat="3.76505" lng="-76.303329"/>
  <marker name="ARMEL RAMIREZ" tel2="316 879-5955" address="Guabitas, Guacar&#xED;, Valle del Cauca, Colombia" lat="3.76505" lng="-76.303329"/>
  <marker name="SOCORRO CAICEDO" tel2="315 275-1521" address="Cl. 10 #13-59, El Cerrito, Valle del Cauca, Colombia" lat="3.68712" lng="-76.314484"/>
  <marker name="SOCORRO CAICEDO" tel2="315 275-1521" address="Cl. 10 #13-59, El Cerrito, Valle del Cauca, Colombia" lat="3.68712" lng="-76.314484"/>
  <marker name="ALBA LOZANO" tel2="315 870-5877" address="Cra. 16 #6-20, El Cerrito, Valle del Cauca, Colombia" lat="3.683604" lng="-76.316727"/>
  <marker name="ALBA LOZANO" tel2="315 870-5877" address="Cra. 16 #6-20, El Cerrito, Valle del Cauca, Colombia" lat="3.683604" lng="-76.316727"/>
  <marker name="ALBA LOZANO" tel2="315 870-5877" address="Cra. 16 #6-20, El Cerrito, Valle del Cauca, Colombia" lat="3.683604" lng="-76.316727"/>
  <marker name="ALBA LOZANO" tel2="315 870-5877" address="Cra. 16 #6-20, El Cerrito, Valle del Cauca, Colombia" lat="3.683604" lng="-76.316727"/>
  <marker name="ALBA LOZANO" tel2="315 870-5877" address="Cra. 16 #6-20, El Cerrito, Valle del Cauca, Colombia" lat="3.683604" lng="-76.316727"/>
  <marker name="ALBA LOZANO" tel2="315 870-5877" address="Cra. 16 #6-20, El Cerrito, Valle del Cauca, Colombia" lat="3.683604" lng="-76.316727"/>
  <marker name="ALBA LOZANO" tel2="315 870-5877" address="Cra. 16 #6-20, El Cerrito, Valle del Cauca, Colombia" lat="3.683604" lng="-76.316727"/>
  <marker name="ALBA LOZANO" tel2="315 870-5877" address="Cra. 16 #6-20, El Cerrito, Valle del Cauca, Colombia" lat="3.683604" lng="-76.316727"/>
  <marker name="ALBA LOZANO" tel2="315 870-5877" address="Cra. 16 #6-20, El Cerrito, Valle del Cauca, Colombia" lat="3.683604" lng="-76.316727"/>
  <marker name="ALBA LOZANO" tel2="315 870-5877" address="Cra. 16 #6-20, El Cerrito, Valle del Cauca, Colombia" lat="3.683604" lng="-76.316727"/>
  <marker name="ALBA LOZANO" tel2="315 870-5877" address="Cra. 16 #6-20, El Cerrito, Valle del Cauca, Colombia" lat="3.683604" lng="-76.316727"/>
  <marker name="ALBA LOZANO" tel2="315 870-5877" address="Cra. 16 #6-20, El Cerrito, Valle del Cauca, Colombia" lat="3.683604" lng="-76.316727"/>
  <marker name="NANCY PINEDA" tel2="318 542-9661" address="Cl. 1 #9-17, El Cerrito, Valle del Cauca, Colombia" lat="3.680653" lng="-76.310333"/>
  <marker name="NANCY PINEDA" tel2="318 542-9661" address="Cl. 1 #9-17, El Cerrito, Valle del Cauca, Colombia" lat="3.680653" lng="-76.310333"/>
  <marker name="ELIECER QUINTERO" tel2="311 633-6967" address="Cl. 6 #6-33, Guacar&#xED;, Valle del Cauca, Colombia" lat="3.76485" lng="-76.332207"/>
  <marker name="ELIECER QUINTERO" tel2="311 633-6967" address="Cl. 6 #6-33, Guacar&#xED;, Valle del Cauca, Colombia" lat="3.76485" lng="-76.332207"/>
  <marker name="ELIECER QUINTERO" tel2="311 633-6967" address="Cl. 6 #6-33, Guacar&#xED;, Valle del Cauca, Colombia" lat="3.76485" lng="-76.332207"/>
  <marker name="ELIECER QUINTERO" tel2="311 633-6967" address="Cl. 6 #6-33, Guacar&#xED;, Valle del Cauca, Colombia" lat="3.76485" lng="-76.332207"/>
  <marker name="ELIECER QUINTERO" tel2="311 633-6967" address="Cl. 6 #6-33, Guacar&#xED;, Valle del Cauca, Colombia" lat="3.76485" lng="-76.332207"/>
  <marker name="ELIECER QUINTERO" tel2="311 633-6967" address="Cl. 6 #6-33, Guacar&#xED;, Valle del Cauca, Colombia" lat="3.76485" lng="-76.332207"/>
  <marker name="ELIECER QUINTERO" tel2="311 633-6967" address="Cl. 6 #6-33, Guacar&#xED;, Valle del Cauca, Colombia" lat="3.76485" lng="-76.332207"/>
  <marker name="ELIECER QUINTERO" tel2="311 633-6967" address="Cl. 6 #6-33, Guacar&#xED;, Valle del Cauca, Colombia" lat="3.76485" lng="-76.332207"/>
  <marker name="ELIECER QUINTERO" tel2="311 633-6967" address="Cl. 6 #6-33, Guacar&#xED;, Valle del Cauca, Colombia" lat="3.76485" lng="-76.332207"/>
  <marker name="ELIECER QUINTERO" tel2="311 633-6967" address="Cl. 6 #6-33, Guacar&#xED;, Valle del Cauca, Colombia" lat="3.76485" lng="-76.332207"/>
  <marker name="ELIECER QUINTERO" tel2="311 633-6967" address="Cl. 6 #6-33, Guacar&#xED;, Valle del Cauca, Colombia" lat="3.76485" lng="-76.332207"/>
  <marker name="ELIECER QUINTERO" tel2="311 633-6967" address="Cl. 6 #6-33, Guacar&#xED;, Valle del Cauca, Colombia" lat="3.76485" lng="-76.332207"/>
</markers>
