<?xml version="1.0"?>
<markers>
  <marker name="Maria Castillo" tel2="318 655-1608" address="Candelaria, Valle del Cauca, Colombia" lat="3.414112" lng="-76.348854"/>
  <marker name="Maria Castillo" tel2="318 655-1608" address="Candelaria, Valle del Cauca, Colombia" lat="3.414112" lng="-76.348854"/>
  <marker name="Edgar bermudez" tel2="320 552-4550" address="El Carmelo, Candelaria, Valle del Cauca, Colombia" lat="3.402369" lng="-76.417824"/>
  <marker name="Edgar bermudez" tel2="320 552-4550" address="El Carmelo, Candelaria, Valle del Cauca, Colombia" lat="3.402369" lng="-76.417824"/>
  <marker name="maria caicedo" tel2="317 860-4287" address="a 7-34,, Cra. 5 #72, Candelaria, Valle del Cauca, Colombia" lat="3.406097" lng="-76.345329"/>
  <marker name="maria caicedo" tel2="317 860-4287" address="a 7-34,, Cra. 5 #72, Candelaria, Valle del Cauca, Colombia" lat="3.406097" lng="-76.345329"/>
  <marker name="carmen perez" tel2="312 775-5926" address="Villagorgona, La Gorgona, Candelaria, Valle del Cauca, Colombia" lat="3.396084" lng="-76.385429"/>
  <marker name="carmen perez" tel2="312 775-5926" address="Villagorgona, La Gorgona, Candelaria, Valle del Cauca, Colombia" lat="3.396084" lng="-76.385429"/>
  <marker name="MARIA TRIANA" tel2="302 348-5412" address="Cl. 15 #30-8, Palmira, Valle del Cauca, Colombia" lat="3.514179" lng="-76.302711"/>
  <marker name="MARIA TRIANA" tel2="302 348-5412" address="Cl. 15 #30-8, Palmira, Valle del Cauca, Colombia" lat="3.514179" lng="-76.302711"/>
  <marker name="MARIA TRIANA" tel2="302 348-5412" address="Cl. 15 #30-8, Palmira, Valle del Cauca, Colombia" lat="3.514179" lng="-76.302711"/>
  <marker name="MARIA TRIANA" tel2="302 348-5412" address="Cl. 15 #30-8, Palmira, Valle del Cauca, Colombia" lat="3.514179" lng="-76.302711"/>
</markers>
